[{"fmisid":104328,"region":"Suomi","iso2":"FI","name":"Äänekoski","latitude":62.6077805,"longitude":25.7232304},{"fmisid":103151,"region":"Äänekoski","iso2":"FI","name":"Äänekoski Hiski","latitude":62.6016998,"longitude":25.7361507},{"fmisid":107168,"region":"Äänekoski","iso2":"FI","name":"Äänekoski Paloasema","latitude":62.6022911,"longitude":25.7398491},{"fmisid":104364,"region":"Äänekoski","iso2":"FI","name":"Äänekoski Rotkola","latitude":62.5851212,"longitude":25.7783108},{"fmisid":104069,"region":"Espoo","iso2":"FI","name":"Espoo Kattilalaakso","latitude":60.1662788,"longitude":24.6543903},{"fmisid":104025,"region":"Espoo","iso2":"FI","name":"Espoo Kauklahti","latitude":60.1886482,"longitude":24.5935402},{"fmisid":104028,"region":"Espoo","iso2":"FI","name":"Espoo Kivenlahti","latitude":60.1558418,"longitude":24.6396599},{"fmisid":103995,"region":"Espoo","iso2":"FI","name":"Espoo Laaksolahti","latitude":60.2439194,"longitude":24.7474709},{"fmisid":106949,"region":"Espoo","iso2":"FI","name":"Espoo Länsiväylä Friisilä","latitude":60.1613007,"longitude":24.7120495},{"fmisid":104290,"region":"Espoo","iso2":"FI","name":"Espoo Leppävaara 1","latitude":60.2217903,"longitude":24.8112202},{"fmisid":104335,"region":"Espoo","iso2":"FI","name":"Espoo Leppävaara 2","latitude":60.2206993,"longitude":24.8151703},{"fmisid":104030,"region":"Espoo","iso2":"FI","name":"Espoo Leppävaara 3","latitude":60.2163200,"longitude":24.8168392},{"fmisid":100691,"region":"Espoo","iso2":"FI","name":"Espoo Leppävaara Läkkisepänkuja","latitude":60.2202415,"longitude":24.8113308},{"fmisid":104032,"region":"Espoo","iso2":"FI","name":"Espoo Lintuvaara","latitude":60.2391205,"longitude":24.8134594},{"fmisid":100723,"region":"Espoo","iso2":"FI","name":"Espoo Luukki","latitude":60.3143883,"longitude":24.6848602},{"fmisid":103998,"region":"Espoo","iso2":"FI","name":"Espoo Mankkaa","latitude":60.2032013,"longitude":24.7609100},{"fmisid":104340,"region":"Espoo","iso2":"FI","name":"Espoo Matinkylä","latitude":60.1643295,"longitude":24.7518196},{"fmisid":104020,"region":"Espoo","iso2":"FI","name":"Espoo Matinkylä 2","latitude":60.1588287,"longitude":24.7434101},{"fmisid":104008,"region":"Espoo","iso2":"FI","name":"Espoo Niittykumpu","latitude":60.1690292,"longitude":24.7641697},{"fmisid":104062,"region":"Espoo","iso2":"FI","name":"Espoo Niittymaa","latitude":60.1690216,"longitude":24.7817097},{"fmisid":104047,"region":"Espoo","iso2":"FI","name":"Espoon keskus","latitude":60.2057686,"longitude":24.6577206},{"fmisid":107148,"region":"Espoo","iso2":"FI","name":"Espoo Otaniemi Kehä I","latitude":60.1803398,"longitude":24.8222408},{"fmisid":104037,"region":"Espoo","iso2":"FI","name":"Espoo Pohjois-Tapiola","latitude":60.1860695,"longitude":24.8086205},{"fmisid":107399,"region":"Espoo","iso2":"FI","name":"Espoo Pohjois-Tapiola 2","latitude":60.1828918,"longitude":24.7934494},{"fmisid":104241,"region":"Espoo","iso2":"FI","name":"Espoo Tapiola","latitude":60.1778908,"longitude":24.7973499},{"fmisid":104367,"region":"Espoo","iso2":"FI","name":"Espoo Tapiola 2","latitude":60.1703186,"longitude":24.8038406},{"fmisid":103989,"region":"Espoo","iso2":"FI","name":"Espoo Tapiola 3","latitude":60.1787415,"longitude":24.8229599},{"fmisid":104052,"region":"Espoo","iso2":"FI","name":"Espoo Tuomarila","latitude":60.2035294,"longitude":24.6987095},{"fmisid":104015,"region":"Hämeenlinna","iso2":"FI","name":"Hämeenlinna Cygnaeuksenkadun puisto","latitude":60.9951096,"longitude":24.4448795},{"fmisid":104022,"region":"Hämeenlinna","iso2":"FI","name":"Hämeenlinna Kaivokatu","latitude":60.9960594,"longitude":24.4559708},{"fmisid":103109,"region":"Hämeenlinna","iso2":"FI","name":"Hämeenlinna Niittykatu","latitude":60.9993401,"longitude":24.4553795},{"fmisid":104329,"region":"Hämeenlinna","iso2":"FI","name":"Hämeenlinna Raatihuoneenkatu","latitude":60.9948502,"longitude":24.4583206},{"fmisid":104261,"region":"Hämeenlinna","iso2":"FI","name":"Hämeenlinna Viipurintie","latitude":60.9993286,"longitude":24.4774399},{"fmisid":107030,"region":"Hamina","iso2":"FI","name":"Hamina Meltti/siirrettävä","latitude":60.5739517,"longitude":27.1912193},{"fmisid":104041,"region":"Hamina","iso2":"FI","name":"Hamina Raatihuoneentori/siirrettävä","latitude":60.5694389,"longitude":27.1967793},{"fmisid":104071,"region":"Hamina","iso2":"FI","name":"Hamina Rautatienkatu/siirrettävä","latitude":60.5739212,"longitude":27.1907692},{"fmisid":106415,"region":"Hamina","iso2":"FI","name":"Hamina Satama ratapiha","latitude":60.5411301,"longitude":27.1621799},{"fmisid":104317,"region":"Hanko","iso2":"FI","name":"Hanko Metsäkaivot","latitude":59.8839912,"longitude":23.2176609},{"fmisid":104318,"region":"Hanko","iso2":"FI","name":"Hanko Syndalen","latitude":59.8717003,"longitude":23.2308407},{"fmisid":103142,"region":"Harjavalta","iso2":"FI","name":"Harjavalta Kaleva","latitude":61.3149490,"longitude":22.1367092},{"fmisid":103143,"region":"Harjavalta","iso2":"FI","name":"Harjavalta Pirkkala","latitude":61.3316917,"longitude":22.1432991},{"fmisid":104221,"region":"Harjavalta","iso2":"FI","name":"Harjavalta Torttilan koulu 2","latitude":61.3293114,"longitude":22.1161308},{"fmisid":778660,"region":"Heinola","iso2":"FI","name":"Keskusta","latitude":61.2031288,"longitude":26.0331898},{"fmisid":100614,"region":"Heinola","iso2":"FI","name":"Pelastuslaitos","latitude":61.1950989,"longitude":26.0202694},{"fmisid":105416,"region":"Heinola","iso2":"FI","name":"Heinola Tiilitehtaankatu","latitude":61.2004890,"longitude":26.0469398},{"fmisid":107392,"region":"Heinola","iso2":"FI","name":"Tommola","latitude":61.2000999,"longitude":26.0492706},{"fmisid":107393,"region":"Heinola","iso2":"FI","name":"Heinola Vierumäki","latitude":61.1075592,"longitude":25.9300709},{"fmisid":104061,"region":"Helsinki","iso2":"FI","name":"Helsinki Eteläranta","latitude":60.1647491,"longitude":24.9533195},{"fmisid":105406,"region":"Helsinki","iso2":"FI","name":"Helsinki Eteläsatama","latitude":60.1622086,"longitude":24.9568596},{"fmisid":104031,"region":"Helsinki","iso2":"FI","name":"Helsinki Hämeentie","latitude":60.1817017,"longitude":24.9552898},{"fmisid":104007,"region":"Helsinki","iso2":"FI","name":"Helsinki Jakomäki","latitude":60.2609482,"longitude":25.0737705},{"fmisid":100662,"region":"Helsinki","iso2":"FI","name":"Helsinki Kallio 2","latitude":60.1873894,"longitude":24.9505997},{"fmisid":103997,"region":"Helsinki","iso2":"FI","name":"Helsinki Kamppi","latitude":60.1649399,"longitude":24.9256706},{"fmisid":104010,"region":"Helsinki","iso2":"FI","name":"Helsinki Katajanokka","latitude":60.1652718,"longitude":24.9692497},{"fmisid":104053,"region":"Helsinki","iso2":"FI","name":"Helsinki Katajanokka 2","latitude":60.1652184,"longitude":24.9738102},{"fmisid":104351,"region":"Helsinki","iso2":"FI","name":"Helsinki Kontula","latitude":60.2351799,"longitude":25.0864601},{"fmisid":104079,"region":"Helsinki","iso2":"FI","name":"Helsinki Länsisatama 3","latitude":60.1534805,"longitude":24.9186306},{"fmisid":106948,"region":"Helsinki","iso2":"FI","name":"Helsinki Länsisatama 4","latitude":60.1552086,"longitude":24.9217796},{"fmisid":100762,"region":"Helsinki","iso2":"FI","name":"Helsinki Mäkelänkatu","latitude":60.1964417,"longitude":24.9519806},{"fmisid":104065,"region":"Helsinki","iso2":"FI","name":"Helsinki Mäkelänkatu 52","latitude":60.1967201,"longitude":24.9511909},{"fmisid":104019,"region":"Helsinki","iso2":"FI","name":"Helsinki Malmi","latitude":60.2536087,"longitude":25.0036297},{"fmisid":104068,"region":"Helsinki","iso2":"FI","name":"Helsinki Malmi 2","latitude":60.2418518,"longitude":25.0254593},{"fmisid":100742,"region":"Helsinki","iso2":"FI","name":"Mannerheimintie","latitude":60.1696396,"longitude":24.9392395},{"fmisid":104240,"region":"Helsinki","iso2":"FI","name":"Helsinki Pakila","latitude":60.2453003,"longitude":24.9363899},{"fmisid":107165,"region":"Helsinki","iso2":"FI","name":"Helsinki Paloheinä","latitude":60.2500381,"longitude":24.9394207},{"fmisid":106950,"region":"Helsinki","iso2":"FI","name":"Helsinki Pirkkola","latitude":60.2342186,"longitude":24.9223194},{"fmisid":104237,"region":"Helsinki","iso2":"FI","name":"Helsinki Punavuori","latitude":60.1619682,"longitude":24.9399605},{"fmisid":104339,"region":"Helsinki","iso2":"FI","name":"Helsinki Rautatieasema","latitude":60.1706696,"longitude":24.9416504},{"fmisid":103994,"region":"Helsinki","iso2":"FI","name":"Helsinki Runeberginkatu","latitude":60.1776505,"longitude":24.9227104},{"fmisid":103977,"region":"Helsinki","iso2":"FI","name":"Helsinki Sörnäinen","latitude":60.1876984,"longitude":24.9704399},{"fmisid":104074,"region":"Helsinki","iso2":"FI","name":"Helsinki Tapanila","latitude":60.2637787,"longitude":25.0240593},{"fmisid":104239,"region":"Helsinki","iso2":"FI","name":"Helsinki Töölö","latitude":60.1853905,"longitude":24.9164791},{"fmisid":104105,"region":"Helsinki","iso2":"FI","name":"Helsinki Töölöntulli","latitude":60.1903381,"longitude":24.9157314},{"fmisid":104046,"region":"Helsinki","iso2":"FI","name":"Helsinki Unioninkatu","latitude":60.1661987,"longitude":24.9515305},{"fmisid":100803,"region":"Helsinki","iso2":"FI","name":"Helsinki Vartiokylä Huivipolku","latitude":60.2239304,"longitude":25.1024399},{"fmisid":103814,"region":"Hollola","iso2":"FI","name":"Hollola Kansankatu siirrettävä","latitude":60.9874611,"longitude":25.5168705},{"fmisid":107623,"region":"Hollola","iso2":"FI","name":"Hollola Kuntotie","latitude":60.9794807,"longitude":25.5336094},{"fmisid":104096,"region":"Hollola","iso2":"FI","name":"Hollola Muovitie","latitude":60.9966812,"longitude":25.5347691},{"fmisid":104059,"region":"Hyvinkää","iso2":"FI","name":"Hyvinkää 2","latitude":60.6301994,"longitude":24.8679695},{"fmisid":107166,"region":"Hyvinkää","iso2":"FI","name":"Hyvinkää Kruununpuisto","latitude":60.6192284,"longitude":24.8578606},{"fmisid":103118,"region":"Imatra","iso2":"FI","name":"Imatra Mansikkala","latitude":61.1889191,"longitude":28.7701206},{"fmisid":104298,"region":"Imatra","iso2":"FI","name":"Imatra Pelkola","latitude":61.1271515,"longitude":28.8361206},{"fmisid":103119,"region":"Imatra","iso2":"FI","name":"Imatra Pelkolan tulliasema Raja","latitude":61.1283798,"longitude":28.8377609},{"fmisid":103121,"region":"Imatra","iso2":"FI","name":"Imatra Rautionkylä","latitude":61.2380714,"longitude":28.8736897},{"fmisid":104269,"region":"Imatra","iso2":"FI","name":"Imatra Sairaala","latitude":61.2215881,"longitude":28.8209095},{"fmisid":103122,"region":"Imatra","iso2":"FI","name":"Imatra Teppanala","latitude":61.1530418,"longitude":28.8101406},{"fmisid":103150,"region":"Inkoo","iso2":"FI","name":"Inkoo Heimgård","latitude":60.0444794,"longitude":23.9814796},{"fmisid":103129,"region":"Jämsä","iso2":"FI","name":"Jämsä Seppolantie","latitude":61.8652000,"longitude":25.1973495},{"fmisid":104026,"region":"Jämsä","iso2":"FI","name":"Jämsä Yläaste","latitude":61.9243889,"longitude":25.1642303},{"fmisid":104038,"region":"Suomi","iso2":"FI","name":"Järvenpää","latitude":60.4671402,"longitude":25.0861797},{"fmisid":107400,"region":"Järvenpää","iso2":"FI","name":"Järvenpää Helsingintie","latitude":60.4697189,"longitude":25.0873508},{"fmisid":103154,"region":"Järvenpää","iso2":"FI","name":"Järvenpää Helsingintie","latitude":60.4713211,"longitude":25.0896702},{"fmisid":103148,"region":"Joensuu","iso2":"FI","name":"Joensuu Koskikatu 1","latitude":62.5990906,"longitude":29.7633991},{"fmisid":106796,"region":"Jyväskylä","iso2":"FI","name":"Jyväskylä Hannikaisenkatu","latitude":62.2381706,"longitude":25.7478809},{"fmisid":107401,"region":"Jyväskylä","iso2":"FI","name":"Jyväskylä Jyskä","latitude":62.2415009,"longitude":25.8414993},{"fmisid":104135,"region":"Jyväskylä","iso2":"FI","name":"Jyväskylä Kortepohja","latitude":62.2490196,"longitude":25.7045708},{"fmisid":104267,"region":"Jyväskylä","iso2":"FI","name":"Jyväskylä Kuokkala","latitude":62.2259598,"longitude":25.7738209},{"fmisid":104131,"region":"Jyväskylä","iso2":"FI","name":"Jyväskylä Lyseo","latitude":62.2433701,"longitude":25.7438698},{"fmisid":103127,"region":"Jyväskylä","iso2":"FI","name":"Jyväskylä Lyseo 2","latitude":62.2430496,"longitude":25.7432098},{"fmisid":104146,"region":"Jyväskylä","iso2":"FI","name":"Jyväskylä Palokka","latitude":62.2886009,"longitude":25.7439098},{"fmisid":103128,"region":"Jyväskylä","iso2":"FI","name":"Jyväskylä Palokka 2","latitude":62.2899094,"longitude":25.7111397},{"fmisid":104338,"region":"Jyväskylä","iso2":"FI","name":"Jyväskylä Säynätsalo 2","latitude":62.1396294,"longitude":25.7657108},{"fmisid":104145,"region":"Jyväskylä","iso2":"FI","name":"Jyväskylä Vaajakoski","latitude":62.2491188,"longitude":25.8693905},{"fmisid":104337,"region":"Jyväskylä","iso2":"FI","name":"Jyväskylä Vaajakoski 2","latitude":62.2488289,"longitude":25.8669109},{"fmisid":100823,"region":"Kaarina","iso2":"FI","name":"Kaarina Kaarina","latitude":60.4083099,"longitude":22.3783493},{"fmisid":103993,"region":"Kaarina","iso2":"FI","name":"Kaarinan keskusta","latitude":60.4068718,"longitude":22.3713608},{"fmisid":778656,"region":"Kajaani","iso2":"FI","name":"Kajaani Keskusta","latitude":64.2244415,"longitude":27.7333298},{"fmisid":104126,"region":"Kajaani","iso2":"FI","name":"Kajaanin keskusta","latitude":64.2239990,"longitude":27.7331505},{"fmisid":104016,"region":"Kajaani","iso2":"FI","name":"Kajaanin keskusta 2","latitude":64.2242889,"longitude":27.7333908},{"fmisid":104127,"region":"Kajaani","iso2":"FI","name":"Kajaani Pöllyvaara","latitude":64.2351379,"longitude":27.7281609},{"fmisid":104243,"region":"Suomi","iso2":"FI","name":"Kauniainen","latitude":60.2159882,"longitude":24.7107697},{"fmisid":104012,"region":"Kauniainen","iso2":"FI","name":"Kauniainen 2","latitude":60.2097816,"longitude":24.7319298},{"fmisid":104075,"region":"Kauniainen","iso2":"FI","name":"Kauniainen 4","latitude":60.2128906,"longitude":24.7112598},{"fmisid":105405,"region":"Kauniainen","iso2":"FI","name":"Kauniainen Kauniaistentie","latitude":60.2095718,"longitude":24.7299404},{"fmisid":107284,"region":"Kemi","iso2":"FI","name":"Biotuotetehdas","latitude":65.7586517,"longitude":24.5398598},{"fmisid":107218,"region":"Kemi","iso2":"FI","name":"Keskusta","latitude":65.7335434,"longitude":24.5621490},{"fmisid":104292,"region":"Suomi","iso2":"FI","name":"Keminmaa","latitude":65.8019104,"longitude":24.5424099},{"fmisid":104258,"region":"Kemi","iso2":"FI","name":"Kemi Paattio","latitude":65.7687073,"longitude":24.5460701},{"fmisid":104356,"region":"Kemi","iso2":"FI","name":"Kemi Paloasema","latitude":65.7425537,"longitude":24.5891399},{"fmisid":104257,"region":"Kemi","iso2":"FI","name":"Kemi Takajärvi","latitude":65.7307281,"longitude":24.6276608},{"fmisid":106953,"region":"Kirkkonummi","iso2":"FI","name":"Kirkkonummi keskusta","latitude":60.1302185,"longitude":24.4263191},{"fmisid":104320,"region":"Kokkola","iso2":"FI","name":"Kokkola Halkokari 2","latitude":63.8561783,"longitude":23.1262093},{"fmisid":103107,"region":"Kokkola","iso2":"FI","name":"Kokkola keskusta Pitkänsillankatu","latitude":63.8376389,"longitude":23.1315994},{"fmisid":104256,"region":"Kokkola","iso2":"FI","name":"Kokkola Tehtaankatu, Rosso","latitude":63.8361282,"longitude":23.1322403},{"fmisid":103108,"region":"Kokkola","iso2":"FI","name":"Kokkola Ykspihlaja","latitude":63.8415718,"longitude":23.0421906},{"fmisid":104155,"region":"Kotka","iso2":"FI","name":"Kotka Hakalanmäki","latitude":60.5051804,"longitude":26.9552402},{"fmisid":103105,"region":"Kotka","iso2":"FI","name":"Kotka Kirjastotalo","latitude":60.4654999,"longitude":26.9389305},{"fmisid":104082,"region":"Kotka","iso2":"FI","name":"Kotka/Kirkkokatu/siirrettävä","latitude":60.4682083,"longitude":26.9459591},{"fmisid":107167,"region":"Kotka","iso2":"FI","name":"Kotka Metsäkulma","latitude":60.5021896,"longitude":26.9707298},{"fmisid":107164,"region":"Kotka","iso2":"FI","name":"Kotka Mussalo satama/siirrettävä","latitude":60.4283905,"longitude":26.9172001},{"fmisid":103106,"region":"Kotka","iso2":"FI","name":"Kotka Rauhala","latitude":60.5131607,"longitude":26.9462109},{"fmisid":107285,"region":"Kotka","iso2":"FI","name":"Kotka Ruukinkatu","latitude":60.4680214,"longitude":26.9514599},{"fmisid":107622,"region":"Kotka","iso2":"FI","name":"Kotka Tiutinen","latitude":60.4690399,"longitude":26.9826107},{"fmisid":104278,"region":"Kouvola","iso2":"FI","name":"Kouvola Inkeroinen","latitude":60.7008018,"longitude":26.8174591},{"fmisid":105409,"region":"Kouvola","iso2":"FI","name":"Kouvola Inkeroinen tehtaanmäen koulu","latitude":60.7065315,"longitude":26.8276291},{"fmisid":104078,"region":"Kouvola","iso2":"FI","name":"Kouvola Kankaan Koulu","latitude":60.8704491,"longitude":26.7010994},{"fmisid":103111,"region":"Kouvola","iso2":"FI","name":"Kouvola Käsityöläisenkatu","latitude":60.8692589,"longitude":26.7056007},{"fmisid":103112,"region":"Kouvola","iso2":"FI","name":"Kouvola Kuusankoski Urheilukentäntie","latitude":60.9071999,"longitude":26.6343899},{"fmisid":104166,"region":"Kouvola","iso2":"FI","name":"Kouvola Lappakosken koulu","latitude":60.9256210,"longitude":26.6753101},{"fmisid":104277,"region":"Kouvola","iso2":"FI","name":"Kouvola Myllykoski, Paperitehtaantie 5","latitude":60.7662697,"longitude":26.7877293},{"fmisid":104321,"region":"Kouvola","iso2":"FI","name":"Kouvola Myllykoski, Pappilantie 7","latitude":60.7688713,"longitude":26.7839508},{"fmisid":103978,"region":"Kouvola","iso2":"FI","name":"Kouvola Ravikylä","latitude":60.8858795,"longitude":26.7033501},{"fmisid":104279,"region":"Kouvola","iso2":"FI","name":"Kouvola Ummeljoki","latitude":60.7662315,"longitude":26.7620392},{"fmisid":104365,"region":"Suomi","iso2":"FI","name":"Kristiinankaupunki","latitude":62.2729988,"longitude":21.3633804},{"fmisid":104024,"region":"Kristiinankaupunki","iso2":"FI","name":"Kristiinankaupunki3","latitude":62.2735596,"longitude":21.3889694},{"fmisid":104301,"region":"Kuopio","iso2":"FI","name":"Kuopio Haapaniemi 2","latitude":62.8852081,"longitude":27.6699104},{"fmisid":100882,"region":"Kuopio","iso2":"FI","name":"Kuopio Haminalahti","latitude":62.8497009,"longitude":27.5287991},{"fmisid":104236,"region":"Kuopio","iso2":"FI","name":"Kuopio Itkonniemi","latitude":62.8989792,"longitude":27.7204494},{"fmisid":102102,"region":"Kuopio","iso2":"FI","name":"Kuopio Kasarmipuisto","latitude":62.8936005,"longitude":27.6695194},{"fmisid":103983,"region":"Kuopio","iso2":"FI","name":"Kuopio Kelloniemi 3","latitude":62.9196701,"longitude":27.7055302},{"fmisid":107541,"region":"Kuopio","iso2":"FI","name":"Kuopio Kurkimäki","latitude":62.7810211,"longitude":27.4967709},{"fmisid":103093,"region":"Kuopio","iso2":"FI","name":"Kuopio Maaherrankatu","latitude":62.8933411,"longitude":27.6868801},{"fmisid":104098,"region":"Kuopio","iso2":"FI","name":"Kuopio Niirala","latitude":62.8887482,"longitude":27.6539707},{"fmisid":104006,"region":"Kuopio","iso2":"FI","name":"Kuopio Puistokatu","latitude":62.8937302,"longitude":27.6708794},{"fmisid":106954,"region":"Kuopio","iso2":"FI","name":"Kuopio Savilahti KYS","latitude":62.8955307,"longitude":27.6472492},{"fmisid":103094,"region":"Kuopio","iso2":"FI","name":"Kuopio Sorsasalo","latitude":62.9552917,"longitude":27.6979694},{"fmisid":103095,"region":"Kuopio","iso2":"FI","name":"Kuopio Tasavallankatu","latitude":62.8819809,"longitude":27.6609306},{"fmisid":103130,"region":"Lahti","iso2":"FI","name":"Lahti Kisapuisto","latitude":60.9878082,"longitude":25.6495399},{"fmisid":103131,"region":"Lahti","iso2":"FI","name":"Lahti Laune Pohjoinen Liipolankatu","latitude":60.9670410,"longitude":25.6548901},{"fmisid":104280,"region":"Lahti","iso2":"FI","name":"Lahti Metsäkangas","latitude":60.9782410,"longitude":25.5880604},{"fmisid":107282,"region":"Lahti","iso2":"FI","name":"Lahti Mustamäenkatu","latitude":60.9627113,"longitude":25.6436901},{"fmisid":103132,"region":"Lahti","iso2":"FI","name":"Lahti Saimaankatu","latitude":60.9912910,"longitude":25.6657906},{"fmisid":103133,"region":"Lahti","iso2":"FI","name":"Lahti Satulakatu","latitude":60.9790688,"longitude":25.5910892},{"fmisid":104161,"region":"Lahti","iso2":"FI","name":"Lahti Tori","latitude":60.9838219,"longitude":25.6553097},{"fmisid":103134,"region":"Lahti","iso2":"FI","name":"Lahti Vesku 11","latitude":60.9838905,"longitude":25.6621799},{"fmisid":104094,"region":"Lahti","iso2":"FI","name":"Lahti Yrittäjänkatu","latitude":60.9851494,"longitude":25.7263203},{"fmisid":104362,"region":"Lappeenranta","iso2":"FI","name":"Lappeenrannan keskusta","latitude":61.0555687,"longitude":28.1847095},{"fmisid":104018,"region":"Lappeenranta","iso2":"FI","name":"Lappeenrannan keskusta 2","latitude":61.0594101,"longitude":28.1951599},{"fmisid":104043,"region":"Lappeenranta","iso2":"FI","name":"Lappeenrannan keskusta 3","latitude":61.0592117,"longitude":28.2276802},{"fmisid":103114,"region":"Lappeenranta","iso2":"FI","name":"Lappeenranta Ihalainen","latitude":61.0408211,"longitude":28.1765003},{"fmisid":107563,"region":"Lappeenranta","iso2":"FI","name":"Lappeenranta Ihalainen 2","latitude":61.0387917,"longitude":28.1763496},{"fmisid":103115,"region":"Lappeenranta","iso2":"FI","name":"Lappeenranta Joutsenon keskusta","latitude":61.1170883,"longitude":28.4984894},{"fmisid":103116,"region":"Lappeenranta","iso2":"FI","name":"Lappeenranta keskusta 4","latitude":61.0557594,"longitude":28.1843109},{"fmisid":103117,"region":"Lappeenranta","iso2":"FI","name":"Lappeenranta Lauritsala","latitude":61.0719414,"longitude":28.2640896},{"fmisid":107379,"region":"Lappeenranta","iso2":"FI","name":"Ojala-Tuomela","latitude":61.0343399,"longitude":28.2124100},{"fmisid":104262,"region":"Lappeenranta","iso2":"FI","name":"Lappeenranta Palolaitos, Joutseno","latitude":61.1122513,"longitude":28.4847107},{"fmisid":103120,"region":"Lappeenranta","iso2":"FI","name":"Lappeenranta Pulp","latitude":61.1253586,"longitude":28.4507809},{"fmisid":104357,"region":"Lappeenranta","iso2":"FI","name":"Lappeenranta Pulpin kirjasto","latitude":61.1223602,"longitude":28.4462891},{"fmisid":104306,"region":"Lappeenranta","iso2":"FI","name":"Lappeenranta Pulpin K-lähikauppa","latitude":61.1236115,"longitude":28.4469109},{"fmisid":103123,"region":"Lappeenranta","iso2":"FI","name":"Lappeenranta Tirilä Pekkasenkatu","latitude":61.0574799,"longitude":28.2458496},{"fmisid":107147,"region":"Lohja","iso2":"FI","name":"Lohja Harjula","latitude":60.2490311,"longitude":24.0694695},{"fmisid":104106,"region":"Lohja","iso2":"FI","name":"Lohja, Keskusta","latitude":60.2503891,"longitude":24.0629101},{"fmisid":107543,"region":"Lohja","iso2":"FI","name":"Lohja Moisio","latitude":60.2529411,"longitude":24.0786095},{"fmisid":104331,"region":"Lohja","iso2":"FI","name":"Lohja Nahkurintori","latitude":60.2512703,"longitude":24.0629196},{"fmisid":103144,"region":"Lohja","iso2":"FI","name":"Lohja Nahkurintori 2","latitude":60.2514496,"longitude":24.0628700},{"fmisid":104353,"region":"Lohja","iso2":"FI","name":"Lohja Virkkalan terveysasema","latitude":60.1884613,"longitude":23.9984207},{"fmisid":104330,"region":"Luoto","iso2":"FI","name":"Luoto Risö","latitude":63.7185783,"longitude":22.7521400},{"fmisid":103153,"region":"Luoto","iso2":"FI","name":"Luoto Vikarholmen","latitude":63.7028694,"longitude":22.7647305},{"fmisid":105404,"region":"Maarianhamina","iso2":"FI","name":"Österleden","latitude":60.1041718,"longitude":19.9449291},{"fmisid":103149,"region":"Mikkeli","iso2":"FI","name":"Mikkeli Porrassalmenkatu","latitude":61.6863594,"longitude":27.2733402},{"fmisid":103984,"region":"Mikkeli","iso2":"FI","name":"Mikkeli Vilhonkatu","latitude":61.6862717,"longitude":27.2723904},{"fmisid":104149,"region":"Naantali","iso2":"FI","name":"Naantali Karvetti","latitude":60.4789314,"longitude":22.0504704},{"fmisid":100824,"region":"Naantali","iso2":"FI","name":"Naantali keskusta Asematori","latitude":60.4674416,"longitude":22.0284004},{"fmisid":104077,"region":"Närpiö","iso2":"FI","name":"Närpiö 2","latitude":62.4726982,"longitude":21.3360806},{"fmisid":104334,"region":"Närpiö","iso2":"FI","name":"Närpiö Piolahti","latitude":62.3840904,"longitude":21.3671703},{"fmisid":104097,"region":"Lahti","iso2":"FI","name":"Nastola Kukkasen koulu","latitude":60.9489784,"longitude":25.9088306},{"fmisid":103125,"region":"Oulu","iso2":"FI","name":"Oulu keskusta 2","latitude":65.0099716,"longitude":25.4713192},{"fmisid":104286,"region":"Oulu","iso2":"FI","name":"Oulu Mustasuo","latitude":65.0517273,"longitude":25.4443398},{"fmisid":104128,"region":"Oulu","iso2":"FI","name":"Oulun keskusta","latitude":65.0100327,"longitude":25.4734802},{"fmisid":103124,"region":"Oulu","iso2":"FI","name":"Oulu Nokela","latitude":64.9947281,"longitude":25.4792595},{"fmisid":103126,"region":"Oulu","iso2":"FI","name":"Oulu Pyykösjärvi","latitude":65.0433807,"longitude":25.4979000},{"fmisid":104130,"region":"Oulu","iso2":"FI","name":"Oulu Simssi","latitude":65.0405273,"longitude":25.4553795},{"fmisid":104129,"region":"Oulu","iso2":"FI","name":"Oulu Välivainio","latitude":65.0330582,"longitude":25.4887199},{"fmisid":104064,"region":"Suomi","iso2":"FI","name":"Parainen","latitude":60.2967796,"longitude":22.2992706},{"fmisid":100843,"region":"Parainen","iso2":"FI","name":"Parainen Parainen","latitude":60.3037186,"longitude":22.2829399},{"fmisid":103152,"region":"Pietarsaari","iso2":"FI","name":"Pietarsaari Bottenviksvägen","latitude":63.6791191,"longitude":22.7183704},{"fmisid":103979,"region":"Pietarsaari","iso2":"FI","name":"Pietarsaari Korsgrundet","latitude":63.6933098,"longitude":22.6954899},{"fmisid":104288,"region":"Pori","iso2":"FI","name":"Pori Ahlainen","latitude":61.6751518,"longitude":21.6187096},{"fmisid":104000,"region":"Pori","iso2":"FI","name":"Pori Aittaluoto","latitude":61.4897995,"longitude":21.8088608},{"fmisid":104208,"region":"Pori","iso2":"FI","name":"Pori Itätulli","latitude":61.4824295,"longitude":21.7984505},{"fmisid":104101,"region":"Pori","iso2":"FI","name":"Pori Itätulli 2","latitude":61.4827003,"longitude":21.7996902},{"fmisid":103136,"region":"Pori","iso2":"FI","name":"Pori keskusta","latitude":61.4826012,"longitude":21.7996807},{"fmisid":106420,"region":"Pori","iso2":"FI","name":"Pori Paanakedonkatu","latitude":61.4822617,"longitude":21.8132896},{"fmisid":103135,"region":"Pori","iso2":"FI","name":"Pori Pastuskeri","latitude":61.6632500,"longitude":21.4548397},{"fmisid":104214,"region":"Porvoo","iso2":"FI","name":"Porvoo Kiiala N-17","latitude":60.4078789,"longitude":25.6160297},{"fmisid":104029,"region":"Porvoo","iso2":"FI","name":"Porvoo Mannerheiminkatu","latitude":60.3944283,"longitude":25.6606903},{"fmisid":103139,"region":"Porvoo","iso2":"FI","name":"Porvoo Mustijoki","latitude":60.3600502,"longitude":25.5660496},{"fmisid":103140,"region":"Porvoo","iso2":"FI","name":"Porvoo Nyby","latitude":60.3171806,"longitude":25.5018291},{"fmisid":104308,"region":"Porvoo","iso2":"FI","name":"Porvoo Riemari","latitude":60.3208199,"longitude":25.5411701},{"fmisid":103141,"region":"Porvoo","iso2":"FI","name":"Porvoo Svartbäck","latitude":60.2872581,"longitude":25.5108299},{"fmisid":107625,"region":"Porvoo","iso2":"FI","name":"Porvoo Vanha Porvoo","latitude":60.3981895,"longitude":25.6604996},{"fmisid":103147,"region":"Raahe","iso2":"FI","name":"Raahe keskusta","latitude":64.6833725,"longitude":24.4816208},{"fmisid":103145,"region":"Raahe","iso2":"FI","name":"Raahe Lapaluoto","latitude":64.6676865,"longitude":24.4192791},{"fmisid":103146,"region":"Raahe","iso2":"FI","name":"Raahe Merikatu","latitude":64.6767120,"longitude":24.4689808},{"fmisid":104315,"region":"Raahe","iso2":"FI","name":"Raahe Ollinsaari","latitude":64.6793518,"longitude":24.4993896},{"fmisid":104314,"region":"Raahe","iso2":"FI","name":"Raahe Saloinen","latitude":64.6532593,"longitude":24.4545898},{"fmisid":104294,"region":"Raahe","iso2":"FI","name":"Raahe Varikko","latitude":64.6766968,"longitude":24.4689503},{"fmisid":106630,"region":"Raisio","iso2":"FI","name":"Raisio Ihala","latitude":60.4703789,"longitude":22.1902008},{"fmisid":104347,"region":"Raisio","iso2":"FI","name":"Raisio Kaanaa","latitude":60.4692802,"longitude":22.1089096},{"fmisid":100804,"region":"Raisio","iso2":"FI","name":"Raisio Kaanaan koulu","latitude":60.4684601,"longitude":22.1052303},{"fmisid":100844,"region":"Raisio","iso2":"FI","name":"Raisio keskusta","latitude":60.4822502,"longitude":22.1655006},{"fmisid":104361,"region":"Rauma","iso2":"FI","name":"Rauma Sampaanala 2","latitude":61.1074219,"longitude":21.4920807},{"fmisid":778578,"region":"Rauma","iso2":"FI","name":"Rauma Sinisaari","latitude":61.1246986,"longitude":21.4934292},{"fmisid":103113,"region":"Rauma","iso2":"FI","name":"Rauma Tarvonsaari Hallikatu","latitude":61.1298599,"longitude":21.4997005},{"fmisid":103815,"region":"Rovaniemi","iso2":"FI","name":"Rovaniemi Etelärinne","latitude":66.5072784,"longitude":25.6940899},{"fmisid":107620,"region":"Rovaniemi","iso2":"FI","name":"Mellakuja","latitude":66.5156937,"longitude":25.6559105},{"fmisid":103816,"region":"Rovaniemi","iso2":"FI","name":"Rovaniemi Rovakatu","latitude":66.5000381,"longitude":25.7269993},{"fmisid":104045,"region":"Savonlinna","iso2":"FI","name":"Savonlinna Olavinkatu","latitude":61.8705902,"longitude":28.8761292},{"fmisid":104268,"region":"Seinäjoki","iso2":"FI","name":"Seinäjoki Vapaudentie","latitude":62.7875214,"longitude":22.8343201},{"fmisid":103110,"region":"Seinäjoki","iso2":"FI","name":"Seinäjoki Vapaudentie 6a","latitude":62.7781982,"longitude":22.8394794},{"fmisid":107026,"region":"Siilinjärvi","iso2":"FI","name":"Siilinjärvi Kuuslahti","latitude":63.1272316,"longitude":27.7717800},{"fmisid":104099,"region":"Siilinjärvi","iso2":"FI","name":"Siilinjärvi Pahkamäki","latitude":63.1752701,"longitude":27.7710991},{"fmisid":107542,"region":"Siilinjärvi","iso2":"FI","name":"Siilinjärvi Ranta","latitude":63.1113396,"longitude":27.7601891},{"fmisid":104017,"region":"Siilinjärvi","iso2":"FI","name":"Siilinjärvi Sorakuja","latitude":63.0723991,"longitude":27.6611500},{"fmisid":107268,"region":"Siilinjärvi","iso2":"FI","name":"Siilinjärvi Sulkavanniitty","latitude":63.0879593,"longitude":27.6863594},{"fmisid":104044,"region":"Siilinjärvi","iso2":"FI","name":"Siilinjärvi Vuorela","latitude":62.9847717,"longitude":27.6903191},{"fmisid":107135,"region":"Siilinjärvi","iso2":"FI","name":"Siilinjärvi Vuorelantie","latitude":62.9752884,"longitude":27.7019997},{"fmisid":104309,"region":"Sipoo","iso2":"FI","name":"Sipoo Löparö","latitude":60.2385712,"longitude":25.4440899},{"fmisid":103999,"region":"Sipoo","iso2":"FI","name":"Sipoo Löparö 2","latitude":60.2376404,"longitude":25.4417801},{"fmisid":107992,"region":"Sotkamo","iso2":"FI","name":"Sotkamo Terrafame Taattola","latitude":64.0021515,"longitude":28.1077404},{"fmisid":104327,"region":"Äänekoski","iso2":"FI","name":"Suolahti","latitude":62.5656700,"longitude":25.8523693},{"fmisid":104014,"region":"Suomussalmi","iso2":"FI","name":"Suomussalmi Kuivajärvi","latitude":64.6426086,"longitude":30.0666904},{"fmisid":103096,"region":"Tampere","iso2":"FI","name":"Tampere Epila 2","latitude":61.5085411,"longitude":23.6758308},{"fmisid":103097,"region":"Tampere","iso2":"FI","name":"Tampere Kaleva","latitude":61.4990997,"longitude":23.8022099},{"fmisid":104228,"region":"Tampere","iso2":"FI","name":"Tampere, keskustori","latitude":61.4975395,"longitude":23.7621307},{"fmisid":104001,"region":"Tampere","iso2":"FI","name":"Tampere Koskikatu","latitude":61.4984398,"longitude":23.7649498},{"fmisid":104283,"region":"Tampere","iso2":"FI","name":"Tampere Lielahti, Isoniemenkatu","latitude":61.5283394,"longitude":23.6850300},{"fmisid":103098,"region":"Tampere","iso2":"FI","name":"Tampere Linja-autoasema","latitude":61.4930687,"longitude":23.7693806},{"fmisid":104003,"region":"Tampere","iso2":"FI","name":"Tampere Linnainmaa","latitude":61.4916000,"longitude":23.8813896},{"fmisid":104034,"region":"Tampere","iso2":"FI","name":"Tampere Lintulampi","latitude":61.5220909,"longitude":23.6662407},{"fmisid":104297,"region":"Tampere","iso2":"FI","name":"Tampere Messukylä","latitude":61.4843788,"longitude":23.8481903},{"fmisid":104040,"region":"Tampere","iso2":"FI","name":"Tampere Niemi","latitude":61.5223312,"longitude":23.6871300},{"fmisid":103099,"region":"Tampere","iso2":"FI","name":"Tampere Pirkankatu","latitude":61.4987297,"longitude":23.7356892},{"fmisid":104285,"region":"Tampere","iso2":"FI","name":"Tampere Raatihuone","latitude":61.4978905,"longitude":23.7596798},{"fmisid":104107,"region":"Tampere","iso2":"FI","name":"Tampere Santalahti","latitude":61.5053596,"longitude":23.7162399},{"fmisid":104027,"region":"Tampere","iso2":"FI","name":"Tampere Veisu","latitude":61.4719315,"longitude":23.8002205},{"fmisid":107142,"region":"Tornio","iso2":"FI","name":"Tornio Keskusta","latitude":65.8429565,"longitude":24.1474895},{"fmisid":107141,"region":"Tornio","iso2":"FI","name":"Näätsaari","latitude":65.8160629,"longitude":24.1637192},{"fmisid":104201,"region":"Tornio","iso2":"FI","name":"Tornio Pudas","latitude":65.8414230,"longitude":24.1718693},{"fmisid":104287,"region":"Turku","iso2":"FI","name":"Turku Aninkaistenkatu","latitude":60.4534187,"longitude":22.2735291},{"fmisid":104363,"region":"Turku","iso2":"FI","name":"Turku Aninkaistensilta","latitude":60.4578896,"longitude":22.2689095},{"fmisid":104307,"region":"Turku","iso2":"FI","name":"Turku Hämeenkatu","latitude":60.4542885,"longitude":22.2873306},{"fmisid":100862,"region":"Turku","iso2":"FI","name":"Turku Kauppatori","latitude":60.4519501,"longitude":22.2676792},{"fmisid":107569,"region":"Turku","iso2":"FI","name":"Turku Kauppatori 2","latitude":60.4518318,"longitude":22.2678299},{"fmisid":106797,"region":"Turku","iso2":"FI","name":"Turku Kauppatori väliaikainen","latitude":60.4519997,"longitude":22.2667999},{"fmisid":104323,"region":"Turku","iso2":"FI","name":"Turku Korppolaismäki","latitude":60.4334297,"longitude":22.2383709},{"fmisid":100842,"region":"Turku","iso2":"FI","name":"Turku Oriketo","latitude":60.4769897,"longitude":22.3094406},{"fmisid":104324,"region":"Turku","iso2":"FI","name":"Turku Puistokatu","latitude":60.4464989,"longitude":22.2527905},{"fmisid":104226,"region":"Turku","iso2":"FI","name":"Turku Ruissalo Kallanpää","latitude":60.4308205,"longitude":22.1258392},{"fmisid":100845,"region":"Turku","iso2":"FI","name":"Turku Ruissalo Saarontie","latitude":60.4253197,"longitude":22.0961094},{"fmisid":104336,"region":"Turku","iso2":"FI","name":"Turku Uudenmaantie","latitude":60.4356117,"longitude":22.2937202},{"fmisid":104325,"region":"Turku","iso2":"FI","name":"Turku Varissuo","latitude":60.4423294,"longitude":22.3564091},{"fmisid":104110,"region":"Tuusula","iso2":"FI","name":"Tuusula (Järvenpääntie)","latitude":60.3966599,"longitude":25.0215607},{"fmisid":107280,"region":"Tuusula","iso2":"FI","name":"Tuusula Vaunukangas","latitude":60.4086685,"longitude":25.0014992},{"fmisid":103104,"region":"Vaasa","iso2":"FI","name":"Vaasa keskusta Vaasanpuistikko","latitude":63.0951500,"longitude":21.6183205},{"fmisid":104260,"region":"Vaasa","iso2":"FI","name":"Vaasan Sähkö","latitude":63.1011810,"longitude":21.6029301},{"fmisid":103103,"region":"Vaasa","iso2":"FI","name":"Vaasa Vesitorni","latitude":63.1012115,"longitude":21.6040707},{"fmisid":103137,"region":"Valkeakoski","iso2":"FI","name":"Valkeakoski Hiekkatekonurmi","latitude":61.2715607,"longitude":24.0284901},{"fmisid":104013,"region":"Valkeakoski","iso2":"FI","name":"Valkeakoski Roukko","latitude":61.2840881,"longitude":24.0188904},{"fmisid":104276,"region":"Valkeakoski","iso2":"FI","name":"Valkeakoski Terveyskeskus, linja 2","latitude":61.2714195,"longitude":24.0309601},{"fmisid":103138,"region":"Valkeakoski","iso2":"FI","name":"Valkeakoski Valkeakosken terveyskeskus","latitude":61.2714195,"longitude":24.0309601},{"fmisid":104102,"region":"Vantaa","iso2":"FI","name":"Vantaa Askisto","latitude":60.2810707,"longitude":24.7789307},{"fmisid":103996,"region":"Vantaa","iso2":"FI","name":"Vantaa Hakunila","latitude":60.2787895,"longitude":25.0934601},{"fmisid":104070,"region":"Vantaa","iso2":"FI","name":"Vantaa Hakunila2","latitude":60.2839584,"longitude":25.0935497},{"fmisid":104083,"region":"Vantaa","iso2":"FI","name":"Vantaa Hämeenlinnanväylä","latitude":60.2719612,"longitude":24.8745098},{"fmisid":104103,"region":"Vantaa","iso2":"FI","name":"Vantaa Helsingin pitäjän kk","latitude":60.2831192,"longitude":24.9794807},{"fmisid":104056,"region":"Vantaa","iso2":"FI","name":"Vantaa Itä-Hakkila","latitude":60.2917519,"longitude":25.1124191},{"fmisid":104076,"region":"Vantaa","iso2":"FI","name":"Vantaa Kehä III Varisto","latitude":60.2817993,"longitude":24.8246098},{"fmisid":104036,"region":"Vantaa","iso2":"FI","name":"Vantaa Kivistö","latitude":60.3170013,"longitude":24.8401508},{"fmisid":104051,"region":"Vantaa","iso2":"FI","name":"Vantaa Koivuhaka","latitude":60.2877998,"longitude":25.0018196},{"fmisid":104011,"region":"Vantaa","iso2":"FI","name":"Vantaa Korso","latitude":60.3499184,"longitude":25.0718098},{"fmisid":104048,"region":"Vantaa","iso2":"FI","name":"Vantaa Lentoasema","latitude":60.3143082,"longitude":24.9727707},{"fmisid":104242,"region":"Vantaa","iso2":"FI","name":"Vantaa Martinlaakso","latitude":60.2796593,"longitude":24.8452091},{"fmisid":103990,"region":"Vantaa","iso2":"FI","name":"Vantaa Myyrmäki","latitude":60.2639198,"longitude":24.8491096},{"fmisid":104063,"region":"Vantaa","iso2":"FI","name":"Vantaa Myyrmäki2","latitude":60.2593689,"longitude":24.8562393},{"fmisid":104066,"region":"Vantaa","iso2":"FI","name":"Vantaa Päiväkumpu","latitude":60.3235016,"longitude":25.0921803},{"fmisid":104021,"region":"Vantaa","iso2":"FI","name":"Vantaa Ruskeasanta","latitude":60.3155289,"longitude":25.0046196},{"fmisid":104080,"region":"Vantaa","iso2":"FI","name":"Vantaa Ruskeasanta 2","latitude":60.3120308,"longitude":25.0110302},{"fmisid":104341,"region":"Vantaa","iso2":"FI","name":"Vantaa Sotunki","latitude":60.2746201,"longitude":25.1356602},{"fmisid":104342,"region":"Vantaa","iso2":"FI","name":"Vantaa Tammisto 1","latitude":60.2706490,"longitude":24.9680099},{"fmisid":104033,"region":"Vantaa","iso2":"FI","name":"Vantaa Tammisto 2","latitude":60.2704811,"longitude":24.9692307},{"fmisid":104359,"region":"Vantaa","iso2":"FI","name":"Vantaa Tikkurila, Asematie","latitude":60.2934494,"longitude":25.0397606},{"fmisid":100763,"region":"Vantaa","iso2":"FI","name":"Vantaa Tikkurila Neilikkatie","latitude":60.2899513,"longitude":25.0395298},{"fmisid":106951,"region":"Vantaa","iso2":"FI","name":"Vantaa Tikkurila Talvikkitie","latitude":60.2950897,"longitude":25.0331593},{"fmisid":107281,"region":"Vantaa","iso2":"FI","name":"Vantaa Ylästö","latitude":60.2780685,"longitude":24.9071102},{"fmisid":107382,"region":"Varkaus","iso2":"FI","name":"Varkaus Kommila","latitude":62.3291016,"longitude":27.8857002},{"fmisid":107063,"region":"Varkaus","iso2":"FI","name":"Varkaus Kommila terveyskeskus","latitude":62.3286018,"longitude":27.8899994},{"fmisid":103101,"region":"Varkaus","iso2":"FI","name":"Varkaus Pääterveysasema","latitude":62.3295784,"longitude":27.8893108},{"fmisid":103986,"region":"Varkaus","iso2":"FI","name":"Varkaus Psaari","latitude":62.3129883,"longitude":27.8852501},{"fmisid":103100,"region":"Varkaus","iso2":"FI","name":"Varkaus Psaari 2","latitude":62.3139114,"longitude":27.8869896},{"fmisid":103102,"region":"Varkaus","iso2":"FI","name":"Varkaus Taulumäki (toripaviljonki)","latitude":62.3178787,"longitude":27.8681107},{"fmisid":104191,"region":"Varkaus","iso2":"FI","name":"Varkaus Vesilaitos","latitude":62.3220100,"longitude":27.9075203},{"fmisid":107028,"region":"Vihti","iso2":"FI","name":"Vihti Nummela","latitude":60.3308182,"longitude":24.3074799},{"fmisid":104035,"region":"Virolahti","iso2":"FI","name":"Virolahti Pajulahti/siirrettävä","latitude":60.5907707,"longitude":27.7429409},{"fmisid":104060,"region":"Virolahti","iso2":"FI","name":"Virolahti urheilukenttä/siirrettävä","latitude":60.5869484,"longitude":27.7280293}]