[{"fmisid":100662,"name":"Helsinki Kallio 2","latitude":60.18739,"longitude":24.95060},{"fmisid":100691,"name":"Espoo Leppävaara Läkkisepänkuja","latitude":60.22024,"longitude":24.81133},{"fmisid":100723,"name":"Espoo Luukki","latitude":60.31439,"longitude":24.68486},{"fmisid":100742,"name":"Mannerheimintie","latitude":60.16964,"longitude":24.93924},{"fmisid":100762,"name":"Helsinki Mäkelänkatu","latitude":60.19644,"longitude":24.95198},{"fmisid":100763,"name":"Vantaa Tikkurila Neilikkatie","latitude":60.28995,"longitude":25.03953},{"fmisid":100803,"name":"Helsinki Vartiokylä Huivipolku","latitude":60.22393,"longitude":25.10244},{"fmisid":100823,"name":"Kaarina Kaarina","latitude":60.40831,"longitude":22.37835},{"fmisid":100824,"name":"Naantali keskusta Asematori","latitude":60.46744,"longitude":22.02840},{"fmisid":100843,"name":"Parainen Parainen","latitude":60.30372,"longitude":22.28294},{"fmisid":100845,"name":"Turku Ruissalo Saarontie","latitude":60.42532,"longitude":22.09611},{"fmisid":100882,"name":"Kuopio Haminalahti","latitude":62.84970,"longitude":27.52880},{"fmisid":102102,"name":"Kuopio Kasarmipuisto","latitude":62.89360,"longitude":27.66952},{"fmisid":103093,"name":"Kuopio Maaherrankatu","latitude":62.89334,"longitude":27.68688},{"fmisid":103094,"name":"Kuopio Sorsasalo","latitude":62.95529,"longitude":27.69797},{"fmisid":103095,"name":"Kuopio Tasavallankatu","latitude":62.88198,"longitude":27.66093},{"fmisid":103096,"name":"Tampere Epila 2","latitude":61.50854,"longitude":23.67583},{"fmisid":103097,"name":"Tampere Kaleva","latitude":61.49910,"longitude":23.80221},{"fmisid":103098,"name":"Tampere Linja-autoasema","latitude":61.49307,"longitude":23.76938},{"fmisid":103099,"name":"Tampere Pirkankatu","latitude":61.49873,"longitude":23.73569},{"fmisid":103100,"name":"Varkaus Psaari 2","latitude":62.31391,"longitude":27.88699},{"fmisid":103102,"name":"Varkaus Taulumäki (toripaviljonki)","latitude":62.31788,"longitude":27.86811},{"fmisid":103103,"name":"Vaasa Vesitorni","latitude":63.10121,"longitude":21.60407},{"fmisid":103104,"name":"Vaasa keskusta Vaasanpuistikko","latitude":63.09515,"longitude":21.61832},{"fmisid":103105,"name":"Kotka Kirjastotalo","latitude":60.46550,"longitude":26.93893},{"fmisid":103106,"name":"Kotka Rauhala","latitude":60.51316,"longitude":26.94621},{"fmisid":103107,"name":"Kokkola keskusta Pitkänsillankatu","latitude":63.83764,"longitude":23.13160},{"fmisid":103108,"name":"Kokkola Ykspihlaja","latitude":63.84157,"longitude":23.04219},{"fmisid":103109,"name":"Hämeenlinna Niittykatu","latitude":60.99934,"longitude":24.45538},{"fmisid":103110,"name":"Seinäjoki Vapaudentie 6a","latitude":62.77820,"longitude":22.83948},{"fmisid":103112,"name":"Kouvola Kuusankoski Urheilukentäntie","latitude":60.90720,"longitude":26.63439},{"fmisid":103113,"name":"Rauma Tarvonsaari Hallikatu","latitude":61.12986,"longitude":21.49970},{"fmisid":103114,"name":"Lappeenranta Ihalainen","latitude":61.04082,"longitude":28.17650},{"fmisid":103115,"name":"Lappeenranta Joutsenon keskusta","latitude":61.11709,"longitude":28.49849},{"fmisid":103116,"name":"Lappeenranta keskusta 4","latitude":61.05576,"longitude":28.18431},{"fmisid":103117,"name":"Lappeenranta Lauritsala","latitude":61.07194,"longitude":28.26409},{"fmisid":103118,"name":"Imatra Mansikkala","latitude":61.18892,"longitude":28.77012},{"fmisid":103120,"name":"Lappeenranta Pulp","latitude":61.12536,"longitude":28.45078},{"fmisid":103121,"name":"Imatra Rautionkylä","latitude":61.23807,"longitude":28.87369},{"fmisid":103122,"name":"Imatra Teppanala","latitude":61.15304,"longitude":28.81014},{"fmisid":103123,"name":"Lappeenranta Tirilä Pekkasenkatu","latitude":61.05748,"longitude":28.24585},{"fmisid":103124,"name":"Oulu Nokela","latitude":64.99473,"longitude":25.47926},{"fmisid":103125,"name":"Oulu keskusta 2","latitude":65.00997,"longitude":25.47132},{"fmisid":103126,"name":"Oulu Pyykösjärvi","latitude":65.04338,"longitude":25.49790},{"fmisid":103128,"name":"Jyväskylä Palokka 2","latitude":62.28991,"longitude":25.71114},{"fmisid":103129,"name":"Jämsä Seppolantie","latitude":61.86520,"longitude":25.19735},{"fmisid":103130,"name":"Lahti Kisapuisto","latitude":60.98781,"longitude":25.64954},{"fmisid":103131,"name":"Lahti Laune Pohjoinen Liipolankatu","latitude":60.96704,"longitude":25.65489},{"fmisid":103132,"name":"Lahti Saimaankatu","latitude":60.99129,"longitude":25.66579},{"fmisid":103133,"name":"Lahti Satulakatu","latitude":60.97907,"longitude":25.59109},{"fmisid":103134,"name":"Lahti Vesku 11","latitude":60.98389,"longitude":25.66218},{"fmisid":103139,"name":"Porvoo Mustijoki","latitude":60.36005,"longitude":25.56605},{"fmisid":103140,"name":"Porvoo Nyby","latitude":60.31718,"longitude":25.50183},{"fmisid":103141,"name":"Porvoo Svartbäck","latitude":60.28726,"longitude":25.51083},{"fmisid":103142,"name":"Harjavalta Kaleva","latitude":61.31495,"longitude":22.13671},{"fmisid":103143,"name":"Harjavalta Pirkkala","latitude":61.33169,"longitude":22.14330},{"fmisid":103145,"name":"Raahe Lapaluoto","latitude":64.66769,"longitude":24.41928},{"fmisid":103147,"name":"Raahe keskusta","latitude":64.68337,"longitude":24.48162},{"fmisid":103148,"name":"Joensuu Koskikatu 1","latitude":62.59909,"longitude":29.76340},{"fmisid":103149,"name":"Mikkeli Porrassalmenkatu","latitude":61.68636,"longitude":27.27334},{"fmisid":103151,"name":"Äänekoski Hiski","latitude":62.60170,"longitude":25.73615},{"fmisid":103152,"name":"Pietarsaari Bottenviksvägen","latitude":63.67912,"longitude":22.71837},{"fmisid":103153,"name":"Luoto Vikarholmen","latitude":63.70287,"longitude":22.76473},{"fmisid":103814,"name":"Hollola Kansankatu siirrettävä","latitude":60.98746,"longitude":25.51687},{"fmisid":104017,"name":"Siilinjärvi Sorakuja","latitude":63.07240,"longitude":27.66115},{"fmisid":104029,"name":"Porvoo Mannerheiminkatu","latitude":60.39443,"longitude":25.66069},{"fmisid":104042,"name":"Kouvola Kuusankoski Mäkikylä","latitude":60.89444,"longitude":26.59167},{"fmisid":104045,"name":"Savonlinna Olavinkatu","latitude":61.87059,"longitude":28.87613},{"fmisid":104048,"name":"Vantaa Lentoasema","latitude":60.31431,"longitude":24.97277},{"fmisid":104053,"name":"Helsinki Katajanokka 2","latitude":60.16522,"longitude":24.97381},{"fmisid":104058,"name":"Hyvinkää","latitude":60.63273,"longitude":24.86124},{"fmisid":104064,"name":"Parainen","latitude":60.29678,"longitude":22.29927},{"fmisid":104074,"name":"Helsinki Tapanila","latitude":60.26378,"longitude":25.02406},{"fmisid":104076,"name":"Vantaa Kehä III Varisto","latitude":60.28180,"longitude":24.82461},{"fmisid":104078,"name":"Kouvola Kankaan Koulu","latitude":60.87045,"longitude":26.70110},{"fmisid":104080,"name":"Vantaa Ruskeasanta 2","latitude":60.31203,"longitude":25.01103},{"fmisid":104083,"name":"Vantaa Hämeenlinnanväylä","latitude":60.27196,"longitude":24.87451},{"fmisid":104091,"name":"Nastola Rakokiventie siirrettävä","latitude":60.93642,"longitude":25.96135},{"fmisid":104092,"name":null,"latitude":0.00000,"longitude":0.00000},{"fmisid":104096,"name":"Hollola Muovitie","latitude":60.99668,"longitude":25.53477},{"fmisid":104097,"name":"Nastola Kukkasen koulu","latitude":60.94898,"longitude":25.90883},{"fmisid":104098,"name":"Kuopio Niirala","latitude":62.88875,"longitude":27.65397},{"fmisid":104099,"name":"Siilinjärvi Pahkamäki","latitude":63.17527,"longitude":27.77110},{"fmisid":104105,"name":"Helsinki Töölöntulli","latitude":60.19034,"longitude":24.91573},{"fmisid":104108,"name":"Pieksämäki Savontie","latitude":62.30087,"longitude":27.15810},{"fmisid":104113,"name":"Jämsä Lääkäritalo","latitude":61.86922,"longitude":25.20081},{"fmisid":104188,"name":"Varkaus kaupungintalo","latitude":62.31238,"longitude":27.88672},{"fmisid":104340,"name":"Espoo Matinkylä","latitude":60.16433,"longitude":24.75182},{"fmisid":105409,"name":"Kouvola Inkeroinen tehtaanmäen koulu","latitude":60.70653,"longitude":26.82763},{"fmisid":105416,"name":"Heinola Tiilitehtaankatu","latitude":61.20049,"longitude":26.04694},{"fmisid":105425,"name":"Siilinjärvi Musti","latitude":63.19622,"longitude":27.73654},{"fmisid":106415,"name":"Hamina Satama ratapiha","latitude":60.54113,"longitude":27.16218},{"fmisid":106417,"name":"Varkaus Kosulanniemi Rantalankatu","latitude":62.31728,"longitude":27.91195},{"fmisid":106418,"name":"Savonlinna Haapasalmi","latitude":61.86918,"longitude":28.88585},{"fmisid":106419,"name":"Raisio Kaanaa Sakunpiha","latitude":60.46574,"longitude":22.10435},{"fmisid":106420,"name":"Pori Paanakedonkatu","latitude":61.48226,"longitude":21.81329},{"fmisid":106629,"name":"Siilinjärvi Murtomäki","latitude":63.13657,"longitude":27.70455},{"fmisid":106630,"name":"Raisio Ihala","latitude":60.47038,"longitude":22.19020},{"fmisid":106796,"name":"Jyväskylä Hannikaisenkatu","latitude":62.23817,"longitude":25.74788},{"fmisid":106797,"name":"Turku Kauppatori väliaikainen","latitude":60.45200,"longitude":22.26680},{"fmisid":106949,"name":"Espoo Länsiväylä Friisilä","latitude":60.16130,"longitude":24.71205},{"fmisid":106950,"name":"Helsinki Pirkkola","latitude":60.23422,"longitude":24.92232},{"fmisid":106951,"name":"Vantaa Tikkurila Talvikkitie","latitude":60.29509,"longitude":25.03316},{"fmisid":106953,"name":"Kirkkonummi keskusta","latitude":60.13022,"longitude":24.42632},{"fmisid":106954,"name":"Kuopio Savilahti KYS","latitude":62.89553,"longitude":27.64725},{"fmisid":107026,"name":"Siilinjärvi Kuuslahti","latitude":63.12723,"longitude":27.77178},{"fmisid":107063,"name":"Varkaus Kommila terveyskeskus","latitude":62.32860,"longitude":27.89000},{"fmisid":107135,"name":"Siilinjärvi Vuorelantie","latitude":62.97529,"longitude":27.70200},{"fmisid":107147,"name":"Lohja Harjula","latitude":60.24903,"longitude":24.06947},{"fmisid":107148,"name":"Espoo Otaniemi Kehä I","latitude":60.18034,"longitude":24.82224},{"fmisid":107165,"name":"Helsinki Paloheinä","latitude":60.25004,"longitude":24.93942},{"fmisid":107166,"name":"Hyvinkää Kruununpuisto","latitude":60.61923,"longitude":24.85786},{"fmisid":107167,"name":"Kotka Metsäkulma","latitude":60.50219,"longitude":26.97073},{"fmisid":107168,"name":"Äänekoski Paloasema","latitude":62.60229,"longitude":25.73985},{"fmisid":107218,"name":"Keskusta","latitude":65.73354,"longitude":24.56215},{"fmisid":107268,"name":"Siilinjärvi Sulkavanniitty","latitude":63.08796,"longitude":27.68636},{"fmisid":107280,"name":"Tuusula Vaunukangas","latitude":60.40867,"longitude":25.00150},{"fmisid":107281,"name":"Vantaa Ylästö","latitude":60.27807,"longitude":24.90711},{"fmisid":107282,"name":"Lahti Mustamäenkatu","latitude":60.96271,"longitude":25.64369},{"fmisid":107284,"name":"Biotuotetehdas","latitude":65.75865,"longitude":24.53986},{"fmisid":107285,"name":"Kotka Ruukinkatu","latitude":60.46802,"longitude":26.95146},{"fmisid":107379,"name":"Ojala-Tuomela","latitude":61.03434,"longitude":28.21241},{"fmisid":107382,"name":"Varkaus Kommila","latitude":62.32910,"longitude":27.88570},{"fmisid":107392,"name":"Tommola","latitude":61.20010,"longitude":26.04927},{"fmisid":107393,"name":"Heinola Vierumäki","latitude":61.10756,"longitude":25.93007},{"fmisid":107399,"name":"Espoo Pohjois-Tapiola 2","latitude":60.18289,"longitude":24.79345},{"fmisid":107400,"name":"Järvenpää Helsingintie","latitude":60.46972,"longitude":25.08735},{"fmisid":107401,"name":"Jyväskylä Jyskä","latitude":62.24150,"longitude":25.84150},{"fmisid":107541,"name":"Kuopio Kurkimäki","latitude":62.78102,"longitude":27.49677},{"fmisid":107542,"name":"Siilinjärvi Ranta","latitude":63.11134,"longitude":27.76019},{"fmisid":107543,"name":"Lohja Moisio","latitude":60.25294,"longitude":24.07861},{"fmisid":107563,"name":"Lappeenranta Ihalainen 2","latitude":61.03879,"longitude":28.17635},{"fmisid":107569,"name":"Turku Kauppatori 2","latitude":60.45183,"longitude":22.26783},{"fmisid":778578,"name":"Rauma Sinisaari","latitude":61.12470,"longitude":21.49343}]